"ID","Binomial","Species_id","Site_ID","Site_name","Latitude","Longitude","Region","Ccamlr_id","1970","1971","1972","1973","1974","1975","1976","1977","1978","1979","1980","1981","1982","1983","1984","1985","1986","1987","1988","1989","1990","1991","1992","1993","1994","1995","1996","1997","1998","1999","2000","2001","2002","2003","2004","2005","2006","2007","2008","2009","2010","2011","2012","2013","2014","2015","2016","2017","2018","2019"
"1","Pygoscelis_papua","GEPE","AITC","Barrientos Island (Aitcho Islands)","-62.4071","-59.7517","South Shetland Islands","48.1",NA,NA,NA,NA,NA,NA,NA,NA,NA,NA,NA,NA,NA,NA,NA,NA,NA,NA,NA,NA,NA,NA,NA,NA,NA,NA,NA,NA,NA,"1",NA,"1",NA,"1",NA,"1","1","1","1","1","1","1",NA,"1","1","1",NA,"1","1",NA
"2","Pygoscelis_papua","GEPE","ALMI","Brown Station","-64.895556","-62.870278","Central-west Antarctic Peninsula","48.1",NA,NA,NA,NA,NA,NA,NA,NA,NA,NA,NA,NA,NA,NA,NA,NA,NA,NA,NA,NA,NA,NA,NA,NA,NA,"1","1","1",NA,NA,NA,NA,NA,NA,NA,"1","1","1","1","1",NA,"1","1","1","1","1","1","1","1","1"
"3","Pygoscelis_papua","GEPE","ANVS","Anvers Island South West (7 km south of Gerlache Island)","-64.661","-64.247","Central-west Antarctic Peninsula","48.1",NA,NA,NA,NA,NA,NA,NA,NA,NA,NA,NA,NA,NA,NA,NA,NA,NA,NA,NA,NA,NA,NA,NA,NA,NA,NA,NA,NA,NA,NA,NA,NA,NA,NA,NA,NA,NA,NA,NA,NA,NA,NA,NA,NA,NA,NA,NA,NA,NA,"1"
"4","Pygoscelis_papua","GEPE","ARDL","Ardley Island","-62.213","-58.933","South Shetland Islands","48.1",NA,NA,NA,NA,NA,NA,NA,NA,NA,"1","1","1",NA,"1","1","1","1",NA,NA,NA,NA,NA,NA,NA,"1","1","1","1","1","1","1","1","1","1","1","1",NA,NA,NA,NA,NA,NA,NA,NA,NA,NA,NA,NA,NA,NA
"5","Pygoscelis_papua","GEPE","BARN","Barnard Point (Livingston Island)","-62.758","-60.338","South Shetland Islands","48.1",NA,NA,NA,NA,NA,NA,NA,NA,NA,NA,NA,NA,NA,NA,NA,NA,NA,"1",NA,NA,NA,NA,NA,NA,NA,NA,NA,NA,NA,NA,NA,NA,NA,NA,NA,NA,NA,NA,NA,NA,NA,NA,NA,NA,NA,NA,NA,NA,NA,NA
"6","Pygoscelis_papua","GEPE","BART","Barton Peninsula","-62.224","-58.791","South Shetland Islands","48.1",NA,NA,NA,NA,NA,NA,NA,NA,NA,NA,NA,NA,NA,NA,"1","1","1",NA,NA,"1",NA,NA,"1",NA,"1",NA,NA,NA,NA,NA,"1","1",NA,NA,NA,NA,"1","1","1","1","1","1","1","1",NA,NA,NA,NA,NA,NA
"7","Pygoscelis_papua","GEPE","BENE","Beneden Head","-64.7671","-62.701","Central-west Antarctic Peninsula","48.1",NA,NA,NA,NA,NA,NA,NA,NA,NA,NA,NA,NA,NA,NA,NA,"1",NA,NA,NA,NA,NA,NA,NA,NA,NA,NA,NA,NA,NA,NA,NA,NA,NA,NA,NA,NA,"1","1","1",NA,NA,"1",NA,"1","1","1",NA,NA,NA,NA
"8","Pygoscelis_papua","GEPE","BISC","Biscoe Point","-64.8114","-63.7775","Central-west Antarctic Peninsula","48.1",NA,NA,NA,NA,NA,NA,NA,NA,NA,NA,NA,NA,NA,NA,"1",NA,NA,NA,NA,NA,NA,NA,NA,NA,"1","1","1","1","1","1","1","1","1","1","1","1","1",NA,NA,"1","1","1","1",NA,NA,NA,NA,NA,NA,NA
"9","Pygoscelis_papua","GEPE","BRAS","Brash Island","-63.386389","-54.914167","Northeast Antarctic Peninsula","48.1",NA,NA,NA,NA,NA,NA,NA,NA,NA,NA,NA,NA,NA,NA,NA,NA,NA,NA,NA,NA,NA,NA,NA,NA,NA,NA,NA,NA,NA,NA,NA,NA,NA,NA,NA,NA,NA,NA,NA,NA,NA,NA,NA,NA,NA,"1",NA,NA,NA,NA
"10","Pygoscelis_papua","GEPE","BRIT","Brittannia's Figleaf","-61.278","-55.213","Elephant Island","48.1","1",NA,NA,NA,NA,NA,NA,NA,NA,NA,NA,NA,NA,NA,NA,NA,NA,NA,NA,NA,NA,NA,NA,NA,NA,NA,NA,NA,NA,NA,NA,NA,NA,NA,NA,NA,NA,NA,NA,NA,NA,NA,NA,NA,NA,NA,"1",NA,NA,NA
"11","Pygoscelis_papua","GEPE","BROW","Brown Bluff","-63.5222","-56.905","Northeast Antarctic Peninsula","48.1",NA,NA,NA,NA,NA,NA,NA,NA,NA,NA,NA,NA,NA,NA,NA,NA,NA,NA,NA,NA,NA,NA,NA,NA,NA,"1",NA,NA,NA,"1","1","1","1","1","1","1","1","1","1","1","1",NA,"1","1","1","1","1","1","1","1"
"12","Pygoscelis_papua","GEPE","BRYE","Bryde Island East","-64.889722","-62.927222","Central-west Antarctic Peninsula","48.1",NA,NA,NA,NA,NA,NA,NA,NA,NA,NA,NA,NA,NA,NA,NA,"1",NA,NA,NA,NA,NA,NA,NA,NA,NA,NA,NA,NA,NA,NA,NA,NA,NA,NA,NA,NA,"1",NA,"1","1","1","1","1","1","1","1","1","1","1","1"
"13","Pygoscelis_papua","GEPE","BRYS","Bryde Island South","-64.901111","-62.950833","Central-west Antarctic Peninsula","48.1",NA,NA,NA,NA,NA,NA,NA,NA,NA,NA,NA,NA,NA,NA,NA,NA,"1",NA,NA,NA,NA,NA,NA,NA,NA,NA,NA,NA,NA,NA,NA,NA,NA,NA,NA,NA,"1",NA,"1","1","1","1","1","1","1","1","1","1","1","1"
"14","Pygoscelis_papua","GEPE","CCOE","Cape Conway (east)","-62.8336","-61.3919","South Shetland Islands","48.1",NA,NA,NA,NA,NA,NA,NA,NA,NA,NA,NA,NA,NA,NA,NA,NA,NA,NA,NA,NA,NA,NA,NA,NA,NA,NA,NA,NA,NA,NA,NA,NA,NA,NA,NA,NA,NA,NA,NA,NA,NA,NA,NA,NA,NA,NA,NA,NA,NA,"1"
"15","Pygoscelis_papua","GEPE","CHPT","Charles Point","-64.236","-61","Central-west Antarctic Peninsula","48.1",NA,NA,NA,NA,NA,NA,NA,NA,NA,NA,NA,NA,NA,NA,NA,NA,"1",NA,NA,NA,NA,NA,NA,NA,NA,NA,NA,"1",NA,NA,NA,NA,NA,NA,NA,NA,NA,NA,NA,NA,"1",NA,NA,NA,NA,NA,NA,NA,NA,NA
"16","Pygoscelis_papua","GEPE","CHRI","Christoffersen Island","-60.728","-45.035","South Orkney Islands","48.2",NA,NA,NA,NA,NA,NA,NA,NA,NA,NA,NA,NA,NA,"1",NA,NA,NA,NA,NA,NA,NA,NA,NA,NA,NA,NA,NA,NA,NA,NA,NA,NA,NA,NA,NA,NA,NA,NA,NA,NA,NA,NA,NA,NA,NA,NA,NA,NA,NA,NA
"17","Pygoscelis_papua","GEPE","CIER","Cierva Point","-64.157","-60.96","Central-west Antarctic Peninsula","48.1",NA,NA,NA,NA,NA,NA,NA,NA,NA,NA,NA,NA,NA,NA,NA,NA,NA,NA,NA,NA,NA,"1","1","1","1","1","1","1",NA,NA,NA,NA,NA,NA,NA,NA,NA,NA,NA,NA,"1",NA,NA,NA,"1",NA,NA,NA,NA,NA
"18","Pygoscelis_papua","GEPE","CUVE","Cuverville Island","-64.684","-62.626","Central-west Antarctic Peninsula","48.1",NA,NA,NA,NA,NA,NA,NA,NA,NA,NA,NA,NA,NA,NA,NA,"1",NA,NA,"1",NA,NA,NA,"1","1","1",NA,NA,NA,NA,NA,NA,NA,NA,"1",NA,"1","1",NA,"1","1","1","1","1","1","1","1","1","1","1","1"
"19","Pygoscelis_papua","GEPE","DAMO","Dorian Bay/Damoy Point","-64.8149","-63.4968","Central-west Antarctic Peninsula","48.1",NA,NA,NA,NA,NA,NA,NA,NA,NA,NA,NA,NA,"1","1",NA,NA,"1",NA,"1",NA,"1",NA,NA,NA,NA,NA,NA,NA,"1",NA,NA,NA,"1",NA,"1","1",NA,"1","1","1","1","1","1","1","1","1","1","1","1",NA
"20","Pygoscelis_papua","GEPE","DANC","Danco Island","-64.734","-62.5938","Central-west Antarctic Peninsula","48.1",NA,NA,NA,NA,NA,NA,NA,NA,NA,NA,NA,NA,NA,NA,NA,"1",NA,NA,NA,NA,NA,NA,"1",NA,"1",NA,NA,NA,NA,"1",NA,NA,NA,NA,NA,NA,"1","1","1","1","1","1","1","1","1","1","1","1","1",NA
"21","Pygoscelis_papua","GEPE","DOBE","Dorian Beacon","-64.811111","-63.511389","Central-west Antarctic Peninsula","48.1",NA,NA,NA,NA,NA,NA,NA,NA,NA,NA,NA,NA,NA,NA,NA,NA,NA,NA,NA,NA,NA,NA,NA,NA,NA,NA,NA,NA,NA,NA,NA,NA,NA,NA,"1","1",NA,"1","1","1","1","1","1","1","1","1","1","1","1",NA
"22","Pygoscelis_papua","GEPE","DUPT","Duthiers Point","-64.8049","-62.8179","Central-west Antarctic Peninsula","48.1",NA,NA,NA,NA,NA,NA,NA,NA,NA,NA,NA,NA,NA,NA,NA,NA,NA,NA,NA,NA,NA,NA,NA,NA,NA,NA,NA,NA,NA,NA,NA,NA,NA,NA,NA,NA,NA,NA,NA,NA,"1","1",NA,"1",NA,NA,NA,NA,"1",NA
"23","Pygoscelis_papua","GEPE","DURV","d'Urville Monument","-63.4267","-56.2944","Northeast Antarctic Peninsula","48.1",NA,NA,NA,NA,NA,NA,NA,NA,NA,NA,NA,NA,NA,NA,NA,NA,NA,NA,NA,NA,NA,NA,NA,NA,NA,NA,NA,NA,NA,NA,NA,NA,NA,NA,NA,"1",NA,NA,NA,NA,NA,NA,NA,NA,NA,NA,"1",NA,NA,NA
"24","Pygoscelis_papua","GEPE","EARL","Earle Island","-63.4833","-54.7833","Northeast Antarctic Peninsula","48.1",NA,NA,NA,NA,NA,NA,NA,NA,NA,NA,NA,NA,NA,NA,NA,NA,NA,NA,NA,NA,NA,NA,NA,NA,NA,NA,NA,NA,NA,NA,NA,NA,NA,NA,NA,NA,NA,NA,NA,NA,NA,NA,NA,NA,NA,"1",NA,NA,NA,NA
"25","Pygoscelis_papua","GEPE","ELPT","Elephant Point","-62.687","-60.849","South Shetland Islands","48.1",NA,NA,NA,NA,NA,NA,NA,NA,NA,NA,NA,NA,NA,NA,NA,NA,NA,NA,NA,NA,NA,NA,NA,NA,NA,NA,NA,NA,NA,NA,NA,NA,NA,NA,NA,NA,NA,NA,NA,NA,NA,NA,NA,NA,NA,NA,NA,NA,NA,"1"
"26","Pygoscelis_papua","GEPE","FORT","Fort Point (Greenwich Island)","-62.542","-59.58","South Shetland Islands","48.1",NA,NA,NA,NA,NA,NA,NA,NA,NA,NA,NA,NA,NA,NA,NA,NA,NA,NA,NA,NA,NA,NA,NA,NA,NA,NA,NA,NA,NA,"1",NA,NA,NA,NA,NA,NA,NA,NA,NA,NA,NA,"1",NA,NA,"1",NA,"1","1","1",NA
"27","Pygoscelis_papua","GEPE","GALE","Galindez Island East","-65.2476","-64.2399","Central-west Antarctic Peninsula","48.1",NA,NA,NA,NA,NA,NA,NA,NA,NA,NA,NA,NA,NA,NA,NA,NA,NA,NA,NA,NA,NA,NA,NA,NA,NA,NA,NA,NA,NA,"1",NA,NA,NA,NA,NA,NA,NA,NA,"1",NA,NA,NA,"1","1","1",NA,NA,NA,NA,NA
"28","Pygoscelis_papua","GEPE","GALS","Galindez Island South","-65.252","-64.246","Central-west Antarctic Peninsula","48.1",NA,NA,NA,NA,NA,NA,NA,NA,NA,NA,NA,NA,NA,NA,NA,NA,NA,NA,NA,NA,NA,NA,NA,NA,NA,NA,NA,NA,NA,"1",NA,NA,NA,NA,NA,NA,NA,NA,NA,NA,NA,NA,"1",NA,NA,NA,NA,NA,NA,NA
"29","Pygoscelis_papua","GEPE","GEOR","Georges Point (Ronge Island)","-64.6694","-62.6696","Central-west Antarctic Peninsula","48.1",NA,NA,NA,NA,NA,NA,NA,NA,NA,NA,NA,NA,NA,NA,NA,NA,NA,NA,"1",NA,NA,NA,"1",NA,"1",NA,NA,NA,NA,NA,NA,NA,NA,NA,"1","1",NA,"1","1","1","1","1","1","1","1","1","1","1","1","1"
"30","Pygoscelis_papua","GEPE","GERL","Gerlache Island","-64.601","-64.214","Central-west Antarctic Peninsula","48.1",NA,NA,NA,NA,NA,NA,NA,NA,"1",NA,NA,NA,NA,NA,"1",NA,NA,NA,NA,NA,NA,NA,NA,NA,NA,NA,NA,NA,NA,NA,NA,NA,NA,NA,NA,NA,NA,NA,NA,NA,NA,NA,NA,NA,NA,NA,NA,NA,NA,"1"
"31","Pygoscelis_papua","GEPE","GLAN","Glandaz Point","-65.0911","-63.9591","Central-west Antarctic Peninsula","48.1",NA,NA,NA,NA,NA,NA,NA,NA,NA,NA,NA,NA,"1",NA,NA,NA,NA,NA,NA,NA,NA,NA,NA,NA,NA,NA,NA,NA,NA,NA,NA,NA,NA,NA,NA,NA,"1","1","1",NA,"1",NA,"1",NA,"1",NA,NA,NA,NA,"1"
"32","Pygoscelis_papua","GEPE","GOSL","Gosling Islands","-60.642","-45.924","South Orkney Islands","48.2",NA,NA,NA,NA,NA,NA,NA,NA,NA,NA,NA,NA,NA,"1",NA,NA,NA,NA,NA,NA,NA,NA,NA,NA,NA,NA,NA,NA,NA,NA,NA,NA,NA,NA,NA,NA,NA,NA,NA,NA,NA,NA,NA,NA,NA,NA,NA,NA,NA,NA
"33","Pygoscelis_papua","GEPE","GOUR","Gourdin Island","-63.1969","-57.3074","Northwest Antarctic Peninsula","48.1",NA,NA,NA,NA,NA,NA,NA,NA,NA,NA,NA,NA,NA,NA,NA,NA,NA,NA,NA,NA,NA,NA,NA,NA,NA,NA,NA,"1",NA,NA,NA,NA,NA,NA,NA,NA,NA,NA,NA,NA,NA,NA,NA,NA,NA,"1",NA,NA,NA,NA
"34","Pygoscelis_papua","GEPE","GREE","The Green Glen","-61.271","-55.266","Elephant Island","48.1","1",NA,NA,NA,NA,NA,NA,NA,NA,NA,NA,NA,NA,NA,NA,NA,NA,NA,NA,NA,NA,NA,NA,NA,NA,NA,NA,NA,NA,NA,NA,NA,NA,NA,NA,NA,NA,NA,NA,NA,NA,NA,NA,NA,NA,NA,NA,NA,NA,"1"
"35","Pygoscelis_papua","GEPE","GREI","Green Island","-65.3236","-64.1487","Central-west Antarctic Peninsula","48.1",NA,NA,NA,NA,NA,NA,NA,NA,NA,NA,NA,NA,NA,NA,NA,NA,NA,NA,NA,NA,NA,NA,NA,NA,NA,NA,NA,NA,NA,NA,NA,NA,NA,NA,NA,NA,NA,NA,NA,NA,NA,NA,NA,NA,NA,NA,NA,"1",NA,NA
"36","Pygoscelis_papua","GEPE","GRIB","Georges Rib","-61.157","-54.973","Elephant Island","48.1","1",NA,NA,NA,NA,NA,NA,NA,NA,NA,NA,NA,NA,NA,NA,NA,NA,NA,NA,NA,NA,NA,NA,NA,NA,NA,NA,NA,NA,NA,NA,NA,NA,NA,NA,NA,NA,NA,NA,NA,NA,NA,NA,NA,NA,NA,NA,NA,NA,NA
"37","Pygoscelis_papua","GEPE","HANE","Hannah Point East","-62.6505","-60.5853","South Shetland Islands","48.1",NA,NA,NA,NA,NA,NA,NA,NA,NA,NA,NA,NA,NA,NA,NA,NA,NA,NA,NA,NA,NA,NA,NA,NA,NA,NA,NA,NA,NA,NA,NA,NA,NA,NA,NA,NA,NA,NA,NA,NA,NA,NA,NA,NA,NA,NA,NA,NA,NA,"1"
"38","Pygoscelis_papua","GEPE","HANN","Hannah Point","-62.6545","-60.6134","South Shetland Islands","48.1",NA,NA,NA,NA,NA,NA,NA,NA,NA,NA,NA,NA,NA,NA,NA,NA,NA,"1",NA,NA,NA,NA,NA,NA,NA,NA,"1","1",NA,NA,NA,NA,NA,NA,"1",NA,NA,NA,NA,NA,"1",NA,NA,"1",NA,"1",NA,NA,NA,"1"
"39","Pygoscelis_papua","GEPE","HARM","Harmony Point","-62.3064","-59.2425","South Shetland Islands","48.1",NA,NA,NA,NA,NA,NA,NA,NA,NA,NA,NA,NA,NA,NA,NA,NA,NA,NA,"1",NA,NA,NA,NA,NA,NA,"1",NA,NA,NA,NA,NA,NA,NA,NA,NA,NA,NA,NA,NA,NA,NA,NA,NA,NA,NA,NA,NA,NA,NA,NA
"40","Pygoscelis_papua","GEPE","HERO","Heroina Island","-63.3944","-54.6083","Northeast Antarctic Peninsula","48.1",NA,NA,NA,NA,NA,NA,NA,NA,NA,NA,NA,NA,NA,NA,NA,NA,NA,NA,NA,NA,NA,NA,NA,NA,NA,NA,"1",NA,NA,NA,NA,NA,NA,NA,NA,"1",NA,NA,"1",NA,NA,NA,NA,NA,NA,"1",NA,NA,NA,NA
"41","Pygoscelis_papua","GEPE","HOPE","Hope Bay","-63.3972","-56.9978","Northeast Antarctic Peninsula","48.1",NA,NA,NA,NA,NA,NA,NA,NA,NA,NA,NA,NA,NA,NA,NA,NA,NA,NA,NA,NA,NA,NA,NA,NA,NA,NA,NA,NA,NA,NA,NA,NA,NA,NA,NA,NA,NA,NA,NA,NA,NA,NA,NA,NA,"1",NA,NA,"1",NA,NA
"42","Pygoscelis_papua","GEPE","HOVG","Hovgaard Island","-65.1311","-64.1264","Central-west Antarctic Peninsula","48.1",NA,NA,NA,NA,NA,NA,NA,NA,NA,NA,NA,NA,NA,NA,NA,NA,NA,NA,NA,NA,NA,NA,NA,NA,NA,NA,NA,NA,NA,NA,NA,NA,NA,NA,NA,NA,NA,NA,NA,NA,NA,NA,NA,NA,NA,NA,NA,"1",NA,NA
"43","Pygoscelis_papua","GEPE","HUMN","Humphries Heights North","-65.0431","-63.8616","Central-west Antarctic Peninsula","48.1",NA,NA,NA,NA,NA,NA,NA,NA,NA,NA,NA,NA,NA,NA,NA,NA,NA,NA,NA,NA,NA,NA,NA,NA,NA,NA,NA,NA,NA,NA,NA,NA,NA,NA,NA,NA,NA,NA,NA,NA,NA,NA,NA,NA,NA,NA,NA,NA,NA,"1"
"44","Pygoscelis_papua","GEPE","HUMP","Humphries Heights","-65.0557","-63.8637","Central-west Antarctic Peninsula","48.1",NA,NA,NA,NA,NA,NA,NA,NA,NA,NA,NA,NA,"1",NA,NA,NA,NA,NA,NA,NA,NA,NA,NA,NA,NA,NA,NA,NA,NA,NA,NA,NA,NA,NA,NA,NA,"1","1","1",NA,"1",NA,"1",NA,"1",NA,NA,NA,NA,NA
"45","Pygoscelis_papua","GEPE","HURE","Hurd Peninsula (east)","-62.695","-60.379","South Shetland Islands","48.1",NA,NA,NA,NA,NA,NA,NA,NA,NA,NA,NA,NA,NA,NA,NA,NA,NA,"1",NA,NA,NA,NA,NA,NA,NA,NA,NA,NA,NA,NA,NA,NA,NA,NA,NA,NA,NA,NA,NA,NA,NA,NA,NA,NA,NA,NA,NA,NA,NA,NA
"46","Pygoscelis_papua","GEPE","HURW","Hurd Peninsula (west)","-62.674","-60.406","South Shetland Islands","48.1",NA,NA,NA,NA,NA,NA,NA,NA,NA,NA,NA,NA,NA,NA,NA,NA,NA,"1",NA,NA,NA,NA,NA,NA,NA,NA,NA,NA,NA,NA,NA,NA,NA,NA,NA,NA,NA,NA,NA,NA,"1",NA,NA,NA,NA,NA,NA,NA,NA,NA
"47","Pygoscelis_papua","GEPE","HUTB","Hut Bluff","-61.219","-55.14","Elephant Island","48.1","1",NA,NA,NA,NA,NA,NA,NA,NA,NA,NA,NA,NA,NA,NA,NA,NA,NA,NA,NA,NA,NA,NA,NA,NA,NA,NA,NA,NA,NA,NA,NA,NA,NA,NA,NA,NA,NA,NA,NA,NA,NA,NA,NA,NA,NA,NA,NA,NA,"1"
"48","Pygoscelis_papua","GEPE","JADE","Jade Point","-63.6028","-57.5935","Northeast Antarctic Peninsula","48.1",NA,NA,NA,NA,NA,NA,NA,NA,NA,NA,NA,NA,NA,NA,NA,NA,NA,NA,NA,NA,NA,NA,NA,NA,NA,NA,NA,NA,NA,NA,NA,"1",NA,NA,NA,NA,NA,NA,NA,NA,NA,NA,NA,NA,NA,NA,NA,NA,NA,NA
"49","Pygoscelis_papua","GEPE","JOHN","Johnson's Dock","-62.6604","-60.3675","South Shetland Islands","48.1",NA,NA,NA,NA,NA,NA,NA,NA,NA,NA,NA,NA,NA,NA,NA,NA,NA,"1",NA,NA,NA,NA,NA,NA,NA,NA,NA,NA,NA,NA,NA,NA,NA,NA,NA,NA,NA,NA,NA,NA,NA,NA,NA,NA,NA,NA,NA,NA,NA,NA
"50","Pygoscelis_papua","GEPE","JONA","Jonassen Island","-63.5425","-56.6834","Northeast Antarctic Peninsula","48.1",NA,NA,NA,NA,NA,NA,NA,NA,NA,NA,NA,NA,NA,NA,NA,NA,NA,NA,NA,NA,NA,NA,NA,NA,NA,"1",NA,NA,NA,NA,NA,"1",NA,NA,NA,NA,NA,NA,"1",NA,NA,NA,NA,NA,NA,NA,"1",NA,NA,NA
"51","Pygoscelis_papua","GEPE","JOUB","Joubin Islands","-64.7744","-64.3992","Central-west Antarctic Peninsula","48.1",NA,NA,NA,NA,"1",NA,NA,NA,NA,NA,"1",NA,"1","1","1",NA,"1",NA,NA,NA,"1",NA,NA,NA,NA,NA,NA,NA,NA,NA,NA,NA,NA,NA,NA,NA,NA,NA,NA,NA,NA,NA,NA,NA,NA,NA,NA,NA,NA,NA
"52","Pygoscelis_papua","GEPE","JOUG","Jougla Point","-64.827","-63.4932","Central-west Antarctic Peninsula","48.1",NA,NA,NA,NA,NA,NA,NA,NA,NA,NA,NA,NA,"1","1",NA,NA,NA,NA,"1",NA,NA,NA,NA,NA,NA,NA,"1","1","1","1","1","1","1","1","1","1","1","1","1","1","1","1","1","1","1","1","1","1","1","1"
"53","Pygoscelis_papua","GEPE","KETL","Ketley Point","-64.7066","-62.7631","Central-west Antarctic Peninsula","48.1",NA,NA,NA,NA,NA,NA,NA,NA,NA,NA,NA,NA,NA,NA,NA,"1",NA,NA,NA,NA,NA,NA,NA,NA,NA,NA,NA,NA,NA,NA,NA,NA,NA,NA,NA,NA,NA,NA,NA,NA,NA,NA,NA,NA,NA,NA,NA,NA,NA,NA
"54","Pygoscelis_papua","GEPE","LAUT","Lautaro Neck","-64.8285","-63.1027","Central-west Antarctic Peninsula","48.1",NA,NA,NA,NA,NA,NA,NA,NA,NA,NA,NA,NA,NA,NA,NA,NA,NA,NA,NA,NA,NA,NA,NA,NA,NA,NA,NA,NA,NA,NA,NA,NA,NA,NA,NA,NA,NA,NA,NA,NA,"1",NA,NA,NA,NA,NA,NA,NA,NA,NA
"55","Pygoscelis_papua","GEPE","LEGU","Cape Leguillou","-63.5427","-59.843","Northwest Antarctic Peninsula","48.1",NA,NA,NA,NA,NA,NA,NA,NA,NA,NA,NA,NA,NA,NA,NA,NA,NA,NA,NA,NA,"1",NA,NA,NA,NA,NA,NA,NA,NA,NA,NA,NA,NA,NA,NA,NA,NA,NA,NA,NA,NA,NA,NA,NA,NA,NA,NA,NA,NA,NA
"56","Pygoscelis_papua","GEPE","LION","Lions Rump","-62.1331","-58.1229","South Shetland Islands","48.1",NA,NA,NA,NA,NA,NA,NA,NA,NA,NA,"1","1",NA,NA,NA,NA,NA,NA,NA,NA,NA,NA,NA,NA,"1","1","1",NA,NA,NA,NA,NA,NA,NA,NA,NA,NA,NA,"1","1","1",NA,NA,NA,NA,NA,NA,NA,NA,NA
"57","Pygoscelis_papua","GEPE","LLAN","Llano Point","-62.176","-58.446","South Shetland Islands","48.1",NA,NA,NA,NA,NA,NA,NA,NA,"1","1","1","1","1",NA,"1","1","1","1","1","1","1","1","1","1","1","1","1","1","1","1","1","1","1","1","1",NA,NA,NA,NA,"1","1",NA,NA,"1",NA,NA,NA,NA,NA,NA
"58","Pygoscelis_papua","GEPE","LOCK","Port Lockroy","-64.8231","-63.484","Central-west Antarctic Peninsula","48.1",NA,NA,NA,NA,NA,NA,NA,NA,NA,NA,NA,NA,NA,NA,NA,NA,NA,NA,NA,NA,NA,NA,NA,NA,NA,NA,"1","1","1","1","1","1","1","1","1","1","1","1","1","1","1","1","1","1","1",NA,"1","1",NA,NA
"59","Pygoscelis_papua","GEPE","LOOK","Cape Lookout","-61.278","-55.205","Elephant Island","48.1",NA,NA,NA,NA,NA,NA,NA,NA,NA,NA,NA,NA,NA,NA,NA,NA,NA,NA,NA,NA,NA,NA,NA,NA,NA,NA,NA,NA,NA,NA,NA,NA,NA,NA,NA,NA,NA,NA,NA,NA,"1",NA,"1",NA,"1","1",NA,NA,NA,NA
"60","Pygoscelis_papua","GEPE","LOUB","Loubat Point","-65.0776","-63.9265","Central-west Antarctic Peninsula","48.1",NA,NA,NA,NA,NA,NA,NA,NA,NA,NA,NA,NA,"1",NA,NA,NA,NA,NA,NA,NA,NA,NA,NA,NA,NA,NA,NA,NA,NA,NA,NA,NA,NA,NA,NA,NA,"1","1","1",NA,NA,NA,"1",NA,NA,NA,NA,NA,NA,NA
"61","Pygoscelis_papua","GEPE","MADD","Madder Cliff (Joinville Island)","-63.2989","-56.4831","Northeast Antarctic Peninsula","48.1",NA,NA,NA,NA,NA,NA,NA,NA,NA,NA,NA,NA,NA,NA,NA,NA,NA,NA,NA,NA,NA,NA,NA,NA,NA,NA,NA,NA,NA,NA,NA,NA,NA,NA,"1",NA,NA,NA,NA,NA,NA,NA,NA,NA,"1","1",NA,"1",NA,NA
"62","Pygoscelis_papua","GEPE","MADI","Madder Cliff Island","-63.306","-56.499","Northeast Antarctic Peninsula","48.1",NA,NA,NA,NA,NA,NA,NA,NA,NA,NA,NA,NA,NA,NA,NA,NA,NA,NA,NA,NA,NA,NA,NA,NA,NA,NA,NA,NA,NA,NA,NA,NA,NA,NA,NA,NA,NA,NA,NA,"1",NA,NA,NA,NA,NA,NA,NA,"1",NA,"1"
"63","Pygoscelis_papua","GEPE","MIKK","Mikkelsen Harbor (Trinity Island)","-63.9022","-60.791","Central-west Antarctic Peninsula","48.1",NA,NA,NA,NA,NA,NA,NA,NA,NA,NA,NA,NA,NA,"1",NA,NA,NA,NA,NA,NA,NA,NA,NA,NA,NA,"1",NA,NA,NA,NA,NA,NA,NA,NA,NA,NA,NA,"1","1",NA,"1",NA,"1","1","1","1","1","1","1","1"
"64","Pygoscelis_papua","GEPE","MONA","Cape Monaco","-64.717138","-64.278164","Central-west Antarctic Peninsula","48.1",NA,NA,NA,NA,NA,NA,NA,NA,"1",NA,NA,NA,NA,NA,NA,NA,NA,NA,NA,NA,NA,NA,NA,NA,NA,NA,NA,NA,NA,NA,NA,NA,NA,NA,NA,NA,NA,NA,NA,NA,NA,NA,NA,NA,NA,NA,NA,NA,NA,NA
"65","Pygoscelis_papua","GEPE","MOOT","Moot Point","-65.2062","-64.078","Central-west Antarctic Peninsula","48.1",NA,NA,NA,NA,NA,NA,NA,NA,NA,NA,NA,NA,NA,NA,NA,NA,NA,NA,NA,NA,NA,NA,NA,NA,NA,NA,NA,NA,NA,NA,NA,NA,NA,NA,NA,"1","1","1","1","1","1",NA,"1","1","1","1",NA,"1",NA,NA
"66","Pygoscelis_papua","GEPE","MUCK","Muckle Bluff","-61.157","-54.86","Elephant Island","48.1","1",NA,NA,NA,NA,NA,NA,NA,NA,NA,NA,NA,NA,NA,NA,NA,NA,NA,NA,NA,NA,NA,NA,NA,NA,NA,NA,NA,NA,NA,NA,NA,NA,NA,NA,NA,NA,NA,NA,NA,NA,NA,NA,NA,NA,NA,NA,NA,NA,"1"
"67","Pygoscelis_papua","GEPE","NEKO","Neko Harbor (Andvord Bay)","-64.8383","-62.5327","Central-west Antarctic Peninsula","48.1",NA,NA,NA,NA,NA,NA,NA,NA,NA,NA,NA,NA,NA,NA,NA,NA,"1",NA,NA,NA,NA,NA,NA,NA,NA,"1",NA,NA,"1","1",NA,NA,"1","1","1","1","1","1","1","1","1","1","1","1","1","1","1","1","1","1"
"68","Pygoscelis_papua","GEPE","NOBL","Noble Rocks","-64.7849","-63.4335","Central-west Antarctic Peninsula","48.1",NA,NA,NA,NA,NA,NA,NA,NA,NA,NA,NA,NA,NA,NA,NA,NA,NA,NA,NA,NA,NA,NA,NA,NA,NA,NA,NA,NA,NA,NA,NA,NA,NA,NA,NA,NA,NA,NA,NA,NA,"1",NA,NA,NA,NA,"1",NA,"1","1","1"
"69","Pygoscelis_papua","GEPE","NOPT","North Point","-60.672","-45.626","South Orkney Islands","48.2",NA,NA,NA,NA,NA,NA,NA,NA,NA,NA,NA,NA,NA,NA,NA,NA,NA,NA,NA,NA,NA,NA,NA,NA,NA,NA,"1","1",NA,NA,NA,NA,NA,NA,NA,NA,NA,NA,NA,NA,NA,NA,NA,NA,NA,"1",NA,NA,NA,NA
"70","Pygoscelis_papua","GEPE","ONEI","O'Neill Point","-64.81622","-63.090132","Central-west Antarctic Peninsula","48.1",NA,NA,NA,NA,NA,NA,NA,NA,NA,NA,NA,NA,NA,NA,NA,NA,NA,"1",NA,NA,NA,NA,NA,NA,NA,NA,NA,NA,NA,NA,NA,NA,NA,NA,NA,NA,NA,NA,NA,NA,"1",NA,NA,"1",NA,NA,NA,NA,"1",NA
"71","Pygoscelis_papua","GEPE","ORNE","Orne Islands","-64.662","-62.673","Central-west Antarctic Peninsula","48.1",NA,NA,NA,NA,NA,NA,NA,NA,NA,NA,NA,NA,NA,NA,NA,NA,NA,NA,NA,NA,NA,NA,NA,NA,"1","1","1","1","1","1",NA,NA,NA,NA,NA,"1","1","1","1","1","1",NA,"1","1","1","1","1","1","1",NA
"72","Pygoscelis_papua","GEPE","PABE","Paradise Harbor Beacon (Paradise Bay)","-64.9111","-62.9311","Central-west Antarctic Peninsula","48.1",NA,NA,NA,NA,NA,NA,NA,NA,NA,NA,NA,NA,NA,NA,NA,NA,NA,NA,NA,NA,NA,NA,NA,NA,NA,NA,NA,NA,NA,NA,NA,NA,NA,NA,NA,NA,"1",NA,NA,NA,NA,NA,NA,NA,NA,NA,NA,NA,"1",NA
"73","Pygoscelis_papua","GEPE","PCHA","Port Charcot","-65.067","-64.026","Central-west Antarctic Peninsula","48.1",NA,NA,NA,NA,NA,NA,NA,NA,NA,NA,NA,NA,"1",NA,NA,NA,NA,NA,NA,NA,NA,NA,NA,NA,NA,NA,NA,NA,NA,NA,"1",NA,NA,NA,NA,"1",NA,"1","1","1","1",NA,"1","1","1","1","1","1",NA,"1"
"74","Pygoscelis_papua","GEPE","PEIN","Peine Island (Comb Island)","-63.411","-54.717","Northeast Antarctic Peninsula","48.1",NA,NA,NA,NA,NA,NA,NA,NA,NA,NA,NA,NA,NA,NA,NA,NA,NA,NA,NA,NA,NA,NA,NA,NA,NA,NA,NA,NA,NA,NA,NA,NA,NA,NA,NA,NA,NA,NA,NA,NA,NA,NA,NA,NA,NA,"1",NA,NA,NA,NA
"75","Pygoscelis_papua","GEPE","PETE","Petermann Island","-65.176","-64.137","Central-west Antarctic Peninsula","48.1",NA,NA,NA,NA,NA,NA,NA,NA,NA,NA,NA,NA,"1",NA,NA,NA,NA,NA,"1",NA,NA,NA,NA,NA,NA,NA,NA,NA,NA,NA,NA,NA,NA,"1","1","1","1","1","1","1",NA,NA,"1","1","1",NA,NA,"1",NA,NA
"76","Pygoscelis_papua","GEPE","PLAT","Plato Island (Platter Island)","-63.433","-54.6742","Northeast Antarctic Peninsula","48.1",NA,NA,NA,NA,NA,NA,NA,NA,NA,NA,NA,NA,NA,NA,NA,NA,NA,NA,NA,NA,NA,NA,NA,NA,NA,NA,NA,NA,NA,NA,NA,NA,NA,NA,NA,NA,NA,NA,NA,NA,NA,NA,NA,NA,NA,"1",NA,NA,NA,NA
"77","Pygoscelis_papua","GEPE","PLEN","Pleneau Island","-65.104","-64.0556","Central-west Antarctic Peninsula","48.1",NA,NA,NA,NA,NA,NA,NA,NA,NA,NA,NA,NA,"1",NA,NA,NA,NA,NA,NA,NA,NA,NA,NA,NA,NA,NA,NA,NA,NA,"1","1",NA,"1","1","1",NA,"1","1","1","1","1",NA,"1","1","1","1",NA,"1",NA,NA
"78","Pygoscelis_papua","GEPE","POWE","Powell Island","-60.725","-45.029","South Orkney Islands","48.2",NA,NA,NA,NA,NA,NA,NA,NA,NA,NA,NA,NA,NA,"1",NA,NA,NA,NA,NA,NA,NA,NA,NA,NA,NA,NA,NA,NA,NA,NA,NA,NA,NA,NA,NA,NA,NA,NA,NA,NA,NA,NA,NA,NA,NA,NA,NA,NA,NA,NA
"79","Pygoscelis_papua","GEPE","PRIM","Prime Head","-63.2129","-57.305","Northwest Antarctic Peninsula","48.1",NA,NA,NA,NA,NA,NA,NA,NA,NA,NA,NA,NA,NA,NA,NA,NA,NA,NA,NA,NA,NA,NA,NA,NA,NA,NA,NA,NA,NA,NA,NA,NA,NA,NA,NA,NA,NA,NA,NA,NA,NA,NA,NA,NA,NA,NA,"1",NA,NA,NA
"80","Pygoscelis_papua","GEPE","PRIN","Principal Point","-64.9121","-63.431","Central-west Antarctic Peninsula","48.1",NA,NA,NA,NA,NA,NA,NA,NA,NA,NA,NA,NA,NA,NA,NA,NA,"1",NA,NA,NA,NA,NA,NA,NA,NA,NA,NA,NA,NA,NA,NA,NA,NA,NA,NA,NA,NA,NA,NA,NA,NA,NA,"1",NA,NA,NA,NA,NA,NA,NA
"81","Pygoscelis_papua","GEPE","PTHO","Point Thomas","-62.1631","-58.4615","South Shetland Islands","48.1",NA,NA,NA,NA,NA,NA,NA,NA,"1","1","1","1",NA,NA,NA,NA,NA,NA,"1","1","1","1","1",NA,"1","1",NA,NA,NA,NA,NA,NA,"1",NA,NA,NA,NA,NA,NA,NA,NA,NA,NA,NA,NA,NA,NA,NA,NA,NA
"82","Pygoscelis_papua","GEPE","PTWD","Point Wordie","-61.245","-55.328","Elephant Island","48.1","1",NA,NA,NA,NA,NA,NA,NA,NA,NA,NA,NA,NA,NA,NA,NA,NA,"1","1",NA,NA,"1",NA,NA,NA,NA,NA,NA,NA,NA,NA,NA,NA,NA,NA,NA,NA,NA,NA,"1","1","1","1","1",NA,NA,NA,NA,NA,"1"
"83","Pygoscelis_papua","GEPE","PYPT","Py Point","-64.8792","-63.5974","Central-west Antarctic Peninsula","48.1",NA,NA,NA,NA,NA,NA,NA,NA,NA,NA,NA,NA,"1",NA,NA,NA,NA,NA,NA,NA,NA,NA,NA,NA,NA,NA,NA,NA,NA,NA,NA,NA,NA,NA,NA,NA,NA,NA,"1","1",NA,NA,NA,NA,NA,NA,NA,NA,NA,NA
"84","Pygoscelis_papua","GEPE","QPTM","Quinton Point (middle)","-64.335","-63.683","Central-west Antarctic Peninsula","48.1",NA,NA,NA,NA,NA,NA,NA,NA,NA,NA,NA,NA,NA,"1",NA,NA,NA,NA,NA,NA,NA,NA,NA,NA,NA,NA,NA,NA,NA,NA,NA,NA,NA,NA,NA,NA,NA,NA,NA,NA,NA,NA,NA,NA,NA,NA,NA,NA,NA,"1"
"85","Pygoscelis_papua","GEPE","RASM","Rasmussen Island","-65.248","-64.0845","Central-west Antarctic Peninsula","48.1",NA,NA,NA,NA,NA,NA,NA,NA,NA,NA,NA,NA,NA,NA,NA,NA,NA,NA,NA,NA,NA,NA,NA,NA,NA,NA,NA,NA,NA,NA,NA,NA,NA,NA,NA,NA,NA,NA,NA,NA,NA,NA,NA,NA,NA,NA,NA,"1",NA,NA
"86","Pygoscelis_papua","GEPE","ROBE","Robert Point (Robert Island)","-62.45","-59.383","South Shetland Islands","48.1",NA,NA,NA,NA,NA,NA,NA,NA,NA,NA,NA,NA,NA,NA,NA,NA,NA,NA,NA,NA,NA,NA,NA,NA,NA,NA,NA,NA,NA,NA,NA,NA,NA,NA,NA,NA,NA,NA,NA,NA,NA,NA,"1",NA,"1",NA,"1",NA,NA,NA
"87","Pygoscelis_papua","GEPE","RONE","Ronge Island East","-64.6884","-62.6436","Central-west Antarctic Peninsula","48.1",NA,NA,NA,NA,NA,NA,NA,NA,NA,NA,NA,NA,NA,NA,NA,NA,"1",NA,"1",NA,NA,NA,"1",NA,"1",NA,NA,NA,NA,NA,NA,NA,NA,NA,NA,NA,NA,"1","1","1",NA,NA,"1","1","1","1","1","1","1","1"
"88","Pygoscelis_papua","GEPE","SANE","San Eliado Point","-64.844","-63.1166","Central-west Antarctic Peninsula","48.1",NA,NA,NA,NA,NA,NA,NA,NA,NA,NA,NA,NA,NA,NA,NA,NA,NA,NA,"1",NA,NA,NA,NA,NA,NA,NA,NA,NA,NA,NA,NA,NA,NA,NA,NA,NA,NA,NA,NA,NA,"1",NA,NA,NA,NA,NA,NA,NA,"1",NA
"89","Pygoscelis_papua","GEPE","SAXU","Saxum Nunatak","-63.1367","-56.0533","Northeast Antarctic Peninsula","48.1",NA,NA,NA,NA,NA,NA,NA,NA,NA,NA,NA,NA,NA,NA,NA,NA,NA,NA,NA,NA,NA,NA,NA,NA,NA,NA,NA,NA,NA,NA,NA,NA,NA,NA,NA,"1",NA,NA,NA,NA,NA,NA,NA,NA,NA,NA,NA,NA,NA,NA
"90","Pygoscelis_papua","GEPE","SELV","Selvick Cove","-64.6405","-62.5691","Central-west Antarctic Peninsula","48.1",NA,NA,NA,NA,NA,NA,NA,NA,NA,NA,NA,NA,NA,NA,NA,NA,NA,NA,NA,NA,NA,NA,NA,NA,NA,NA,NA,NA,NA,NA,NA,NA,NA,NA,NA,NA,NA,"1","1","1",NA,"1","1","1","1","1","1","1","1","1"
"91","Pygoscelis_papua","GEPE","SHIR","Cape Shirreff","-62.4575","-60.7874","South Shetland Islands","48.1",NA,NA,NA,NA,NA,NA,NA,NA,NA,NA,NA,NA,NA,NA,NA,NA,NA,NA,NA,NA,NA,NA,NA,NA,NA,NA,"1","1","1","1","1","1",NA,"1","1","1","1","1","1","1","1",NA,NA,NA,NA,NA,NA,NA,NA,NA
"92","Pygoscelis_papua","GEPE","SKOT","Skottsberg Point","-63.9205","-60.8089","Central-west Antarctic Peninsula","48.1",NA,NA,NA,NA,NA,NA,NA,NA,NA,NA,NA,NA,NA,NA,NA,NA,"1",NA,NA,NA,NA,NA,NA,NA,NA,NA,NA,NA,NA,NA,NA,NA,NA,NA,NA,NA,NA,NA,"1",NA,NA,NA,"1","1","1","1","1","1","1",NA
"93","Pygoscelis_papua","GEPE","SPIP","Spigot Peak Point","-64.625","-62.558","Central-west Antarctic Peninsula","48.1",NA,NA,NA,NA,NA,NA,NA,NA,NA,NA,NA,NA,NA,NA,NA,NA,NA,NA,NA,NA,NA,NA,NA,NA,NA,NA,NA,NA,NA,NA,NA,NA,NA,NA,NA,NA,NA,"1",NA,NA,NA,NA,NA,NA,"1",NA,"1",NA,"1",NA
"94","Pygoscelis_papua","GEPE","SPTR","Spigot Peak Tripod","-64.6358","-62.5622","Central-west Antarctic Peninsula","48.1",NA,NA,NA,NA,NA,NA,NA,NA,NA,NA,NA,NA,NA,NA,NA,NA,NA,NA,NA,NA,NA,NA,NA,NA,NA,NA,NA,NA,NA,NA,NA,NA,NA,NA,NA,NA,NA,NA,NA,NA,NA,NA,NA,NA,"1","1","1","1","1",NA
"95","Pygoscelis_papua","GEPE","STER","Sterneck Island","-64.191972","-61.049022","Central-west Antarctic Peninsula","48.1",NA,NA,NA,NA,NA,NA,NA,NA,NA,NA,NA,NA,NA,NA,NA,NA,"1",NA,NA,NA,NA,NA,NA,NA,NA,NA,NA,"1",NA,NA,NA,NA,NA,NA,NA,NA,NA,NA,NA,NA,"1",NA,NA,NA,NA,"1",NA,NA,NA,NA
"96","Pygoscelis_papua","GEPE","STRA","Stranger Point","-62.26","-58.6161","South Shetland Islands","48.1",NA,NA,NA,NA,NA,NA,NA,NA,NA,NA,"1",NA,NA,NA,"1","1",NA,"1","1",NA,NA,NA,NA,NA,NA,NA,"1","1",NA,NA,"1","1","1","1","1","1","1",NA,NA,NA,NA,NA,NA,NA,NA,NA,NA,NA,NA,NA
"97","Pygoscelis_papua","GEPE","TRIA","Triangle Point","-62.522","-59.839","South Shetland Islands","48.1",NA,NA,NA,NA,NA,NA,NA,NA,NA,NA,NA,NA,NA,NA,NA,NA,NA,NA,NA,NA,NA,NA,NA,NA,NA,NA,NA,NA,NA,NA,NA,NA,NA,NA,NA,NA,NA,NA,NA,NA,NA,NA,NA,NA,NA,NA,NA,NA,"1",NA
"98","Pygoscelis_papua","GEPE","TRUA","Truant Island","-64.923","-63.407","Central-west Antarctic Peninsula","48.1",NA,NA,NA,NA,NA,NA,NA,NA,NA,NA,NA,NA,NA,NA,NA,NA,"1",NA,NA,NA,NA,NA,NA,NA,NA,NA,NA,NA,NA,NA,NA,NA,NA,NA,NA,NA,NA,NA,NA,NA,NA,NA,"1",NA,NA,NA,NA,NA,NA,NA
"99","Pygoscelis_papua","GEPE","TUXE","Cape Tuxen","-65.2667","-64.1178","Central-west Antarctic Peninsula","48.1",NA,NA,NA,NA,NA,NA,NA,NA,NA,NA,NA,NA,NA,NA,NA,NA,NA,NA,NA,NA,NA,NA,NA,NA,NA,NA,NA,NA,NA,NA,NA,NA,NA,NA,NA,NA,NA,NA,NA,NA,NA,NA,"1","1","1","1",NA,"1",NA,NA
"100","Pygoscelis_papua","GEPE","TXRX","Tuxen Rocks","-65.2549","-64.1334","Central-west Antarctic Peninsula","48.1",NA,NA,NA,NA,NA,NA,NA,NA,NA,NA,NA,NA,NA,NA,NA,NA,NA,NA,NA,NA,NA,NA,NA,NA,NA,NA,NA,NA,NA,NA,NA,NA,NA,NA,NA,NA,NA,NA,NA,NA,NA,NA,NA,"1","1","1",NA,NA,NA,"1"
"101","Pygoscelis_papua","GEPE","USEF","Useful Island","-64.717","-62.864","Central-west Antarctic Peninsula","48.1",NA,NA,NA,NA,NA,NA,NA,NA,NA,NA,NA,NA,NA,"1",NA,NA,NA,NA,NA,NA,NA,NA,NA,NA,NA,NA,NA,NA,NA,NA,NA,NA,NA,NA,"1",NA,NA,"1","1","1",NA,NA,NA,NA,NA,"1",NA,NA,NA,"1"
"102","Pygoscelis_papua","GEPE","VERN","Vernadsky Station","-65.2453","-64.2567","Central-west Antarctic Peninsula","48.1",NA,NA,NA,NA,NA,NA,NA,NA,NA,NA,NA,NA,NA,NA,NA,NA,NA,NA,NA,NA,NA,NA,NA,NA,NA,NA,NA,NA,NA,"1",NA,NA,NA,NA,NA,NA,NA,"1","1",NA,NA,NA,"1",NA,"1",NA,NA,"1",NA,NA
"103","Pygoscelis_papua","GEPE","WALL","Cape Wallace","-63.233","-62.209","South Shetland Islands","48.1",NA,NA,NA,NA,NA,NA,NA,NA,NA,NA,NA,NA,NA,NA,NA,NA,NA,NA,NA,NA,NA,NA,NA,NA,NA,NA,NA,NA,NA,NA,NA,NA,NA,NA,NA,NA,NA,NA,NA,NA,NA,NA,NA,NA,NA,NA,NA,NA,NA,"1"
"104","Pygoscelis_papua","GEPE","WATE","Waterboat Point","-64.8236","-62.8581","Central-west Antarctic Peninsula","48.1",NA,NA,NA,NA,NA,NA,NA,NA,NA,NA,NA,NA,NA,NA,NA,"1",NA,NA,NA,NA,NA,NA,NA,NA,NA,"1",NA,"1",NA,NA,NA,NA,NA,NA,"1",NA,NA,NA,"1",NA,NA,"1","1","1","1","1","1","1",NA,NA
"105","Pygoscelis_papua","GEPE","WEDD","Weddell Island","-60.6359","-44.8479","South Orkney Islands","48.2",NA,NA,NA,NA,NA,NA,NA,NA,NA,NA,NA,NA,NA,NA,NA,NA,NA,"1",NA,NA,NA,NA,NA,NA,NA,NA,NA,NA,NA,NA,NA,NA,NA,NA,NA,NA,NA,NA,NA,NA,NA,NA,NA,NA,NA,NA,NA,NA,NA,NA
"106","Pygoscelis_papua","GEPE","WILD","Point Wild","-61.098","-54.861","Elephant Island","48.1","1",NA,NA,NA,NA,NA,NA,NA,NA,NA,NA,NA,NA,NA,NA,NA,NA,NA,NA,NA,NA,NA,NA,NA,NA,NA,NA,NA,NA,NA,NA,NA,NA,NA,NA,NA,NA,NA,NA,NA,NA,NA,NA,NA,NA,NA,NA,NA,NA,"1"
"107","Pygoscelis_papua","GEPE","WPEC","Watson Peninsula (east coast)","-60.6761","-44.5436","South Orkney Islands","48.2",NA,NA,NA,NA,NA,NA,NA,NA,NA,NA,NA,NA,NA,"1",NA,NA,NA,NA,NA,NA,NA,NA,NA,NA,"1",NA,NA,NA,NA,NA,NA,NA,NA,NA,NA,NA,NA,NA,NA,NA,NA,NA,NA,NA,NA,NA,NA,NA,NA,NA
"108","Pygoscelis_papua","GEPE","YALO","Yalour Islands","-65.2389","-64.1564","Central-west Antarctic Peninsula","48.1",NA,NA,NA,NA,NA,NA,NA,NA,NA,NA,NA,NA,NA,NA,NA,NA,NA,NA,NA,NA,NA,NA,NA,NA,NA,"1",NA,NA,NA,NA,NA,NA,NA,"1",NA,NA,"1",NA,NA,"1",NA,NA,"1","1",NA,NA,NA,"1",NA,NA
"109","Pygoscelis_papua","GEPE","YANK","Yankee Harbor","-62.5257","-59.7687","South Shetland Islands","48.1",NA,NA,NA,NA,NA,NA,NA,NA,NA,NA,NA,NA,NA,NA,NA,NA,NA,NA,NA,NA,"1",NA,NA,NA,NA,NA,"1",NA,NA,"1","1",NA,"1","1",NA,NA,NA,"1",NA,NA,NA,NA,"1","1",NA,"1","1",NA,NA,NA
